{
	"parameters": {
        "algorithm_type": 1,
		"StoreRoute": true,
		"RouteName": "Single Driver Route 10 Stops",
		"route_time": 25200,
		"optimize": "Distance",
		"distance_unit": "mi",
        "device_type": "web"
    },
    "addresses": [
		{
            "route_destination_id": 188936020,
            "alias": "",
            "member_id": 1,
            "address": "455 S 4th St, Louisville, KY 40202",
            "is_depot": true,
            "lat": 38.251698,
            "lng": -85.757308,
            "curbside_lat": 38.251698,
            "curbside_lng": -85.757308,
            "sequence_no": 0,
            "address_stop_type": "DELIVERY",
            "weight": 2,
            "cost": 10,
            "revenue": 20,
            "cube": 2,
            "pieces": 1
        },
	  {
            "route_destination_id": 188936025,
            "alias": "",
            "member_id": 1,
            "address": "650 SOUTH 29TH ST UNIT 315, Louisville, KY, 40211",
            "is_depot": false,
            "lat": 38.251923,
            "lng": -85.800034,
            "curbside_lat": 38.251923,
            "curbside_lng": -85.800034,
            "sequence_no": 1,
            "address_stop_type": "DELIVERY",
            "weight": 4,
            "cost": 30,
            "revenue": 60,
            "cube": 2,
            "pieces": 10
        },
        {
            "route_destination_id": 188936049,
            "alias": "",
            "member_id": 1,
            "address": "434 N 26TH STREET #2, Louisville, KY, 40212",
            "is_depot": false,
            "lat": 38.26844,
            "lng": -85.791962,
            "curbside_lat": 38.26844,
            "curbside_lng": -85.791962,
            "sequence_no": 2,
            "address_stop_type": "DELIVERY",
            "weight": 4,
            "cost": 30,
            "revenue": 60,
            "cube": 2,
            "pieces": 10
        },
        {
            "route_destination_id": 188936050,
            "alias": "",
            "member_id": 1,
            "address": "678 WESTLAWN ST, Louisville, KY, 40211",
            "is_depot": false,
            "lat": 38.250397,
            "lng": -85.80629,
            "curbside_lat": 38.250397,
            "curbside_lng": -85.80629,
            "sequence_no": 3,
            "address_stop_type": "DELIVERY",
            "weight": 4,
            "cost": 30,
            "revenue": 60,
            "cube": 2,
            "pieces": 10
        },
        {
            "route_destination_id": 188936065,
            "alias": "",
            "member_id": 1,
            "address": "2407 W CHESTNUT ST, Louisville, KY, 40211",
            "is_depot": false,
            "lat": 38.252781,
            "lng": -85.792109,
            "curbside_lat": 38.252781,
            "curbside_lng": -85.792109,
            "sequence_no": 4,
            "address_stop_type": "DELIVERY",
            "weight": 4,
            "cost": 30,
            "revenue": 60,
            "cube": 2,
            "pieces": 10
        }
	]
}